[{"name":"Afghanistan","code":"af","latitude":"34.52813","longitude":"69.17233","zipcode":"1001","timezone":"+04:30"},{"name":"Aland Islands","code":"ax","latitude":"60.09726","longitude":"19.93481","zipcode":"22100","timezone":"+03:00"},{"name":"Albania","code":"al","latitude":"41.3275","longitude":"19.81889","zipcode":"1033","timezone":"+02:00"},{"name":"Algeria","code":"dz","latitude":"36.7525","longitude":"3.04197","zipcode":"16015","timezone":"+01:00"},{"name":"American Samoa","code":"as","latitude":"-14.27806","longitude":"-170.7025","zipcode":"96799","timezone":"-11:00"},{"name":"Andorra","code":"ad","latitude":"42.50729","longitude":"1.53414","zipcode":"AD700","timezone":"+02:00"},{"name":"Angola","code":"ao","latitude":"-8.83682","longitude":"13.23432","zipcode":"-","timezone":"+01:00"},{"name":"Anguilla","code":"ai","latitude":"18.21704","longitude":"-63.05783","zipcode":"AI-2640","timezone":"-04:00"},{"name":"Antigua and Barbuda","code":"ag","latitude":"17.135269","longitude":"-61.815931","zipcode":"-","timezone":"-04:00"},{"name":"Argentina","code":"ar","latitude":"-34.61315","longitude":"-58.37723","zipcode":"1871","timezone":"-03:00"},{"name":"Armenia","code":"am","latitude":"40.18111","longitude":"44.51361","zipcode":"0099","timezone":"+04:00"},{"name":"Aruba","code":"aw","latitude":"12.52398","longitude":"-70.02703","zipcode":"-","timezone":"-04:00"},{"name":"Australia","code":"au","latitude":"-23.5","longitude":"150.28333","zipcode":"3805","timezone":"+10:00"},{"name":"Austria","code":"at","latitude":"48.20849","longitude":"16.37208","zipcode":"1010","timezone":"+02:00"},{"name":"Azerbaijan","code":"az","latitude":"40.58972","longitude":"49.66861","zipcode":"AZ 0000","timezone":"+04:00"},{"name":"Bahamas","code":"bs","latitude":"25.05823","longitude":"-77.34306","zipcode":"-","timezone":"-04:00"},{"name":"Bahrain","code":"bh","latitude":"26.21536","longitude":"50.5832","zipcode":"-","timezone":"+03:00"},{"name":"Bangladesh","code":"bd","latitude":"23.7104","longitude":"90.40744","zipcode":"1312","timezone":"+06:00"},{"name":"Barbados","code":"bb","latitude":"13.1","longitude":"-59.61667","zipcode":"BB12001","timezone":"-04:00"},{"name":"Belarus","code":"by","latitude":"53.6884","longitude":"23.8258","zipcode":"-","timezone":"+03:00"},{"name":"Belgium","code":"be","latitude":"50.85045","longitude":"4.34878","zipcode":"1210","timezone":"+02:00"},{"name":"Belize","code":"bz","latitude":"17.25","longitude":"-88.76667","zipcode":"-","timezone":"-06:00"},{"name":"Benin","code":"bj","latitude":"6.36536","longitude":"2.41833","zipcode":"-","timezone":"+01:00"},{"name":"Bhutan","code":"bt","latitude":"27.51667","longitude":"90.5","zipcode":"-","timezone":"+06:00"},{"name":"Bolivia, Plurinational State of","code":"bo","latitude":"-17.8","longitude":"-63.16667","zipcode":"-","timezone":"-04:00"},{"name":"Bonaire, Sint Eustatius and Saba","code":"bq","latitude":"12.15","longitude":"-68.26667","zipcode":"-","timezone":"-04:00"},{"name":"Bosnia and Herzegovina","code":"ba","latitude":"44.20139","longitude":"17.90639","zipcode":"72112","timezone":"+02:00"},{"name":"Botswana","code":"bw","latitude":"-17.81667","longitude":"25.15","zipcode":"-","timezone":"+02:00"},{"name":"Brazil","code":"br","latitude":"-19.92083","longitude":"-43.93778","zipcode":"30000-000","timezone":"-03:00"},{"name":"British Indian Ocean Territory","code":"io","latitude":"-7.313333","longitude":"72.411111","zipcode":"BBND 1ZZ","timezone":"+06:00"},{"name":"Brunei Darussalam","code":"bn","latitude":"4.873474","longitude":"114.921279","zipcode":"BA2112","timezone":"+08:00"},{"name":"Bulgaria","code":"bg","latitude":"42.69751","longitude":"23.32415","zipcode":"1000","timezone":"+03:00"},{"name":"Burkina Faso","code":"bf","latitude":"12.36423","longitude":"-1.53834","zipcode":"-","timezone":"+00:00"},{"name":"Burundi","code":"bi","latitude":"-3.3822","longitude":"29.3644","zipcode":"-","timezone":"+02:00"},{"name":"Cabo Verde","code":"cv","latitude":"14.92148","longitude":"-23.50868","zipcode":"7601","timezone":"-01:00"},{"name":"Cambodia","code":"kh","latitude":"11.56245","longitude":"104.91601","zipcode":"12206","timezone":"+07:00"},{"name":"Cameroon","code":"cm","latitude":"3.86667","longitude":"11.51667","zipcode":"-","timezone":"+01:00"},{"name":"Canada","code":"ca","latitude":"43.64713","longitude":"-79.38094","zipcode":"M5K 1A1","timezone":"-04:00"},{"name":"Cayman Islands","code":"ky","latitude":"19.3","longitude":"-81.11667","zipcode":"KY1-1800","timezone":"-05:00"},{"name":"Central African Republic","code":"cf","latitude":"4.36122","longitude":"18.55496","zipcode":"-","timezone":"+01:00"},{"name":"Chad","code":"td","latitude":"12.10672","longitude":"15.0444","zipcode":"-","timezone":"+01:00"},{"name":"Chile","code":"cl","latitude":"-33.42628","longitude":"-70.56656","zipcode":"8320000","timezone":"-03:00"},{"name":"China","code":"cn","latitude":"23.11667","longitude":"113.25","zipcode":"510140","timezone":"+08:00"},{"name":"Colombia","code":"co","latitude":"4.60971","longitude":"-74.08175","zipcode":"110321","timezone":"-05:00"},{"name":"Comoros","code":"km","latitude":"-11.70216","longitude":"43.25506","zipcode":"-","timezone":"+03:00"},{"name":"Congo","code":"cg","latitude":"-4.26583","longitude":"15.28318","zipcode":"-","timezone":"+01:00"},{"name":"Congo, The Democratic Republic of The","code":"cd","latitude":"-11.66089","longitude":"27.47938","zipcode":"-","timezone":"+02:00"},{"name":"Cook Islands","code":"ck","latitude":"-21.20778","longitude":"-159.775","zipcode":"-","timezone":"-10:00"},{"name":"Costa Rica","code":"cr","latitude":"9.86667","longitude":"-83.91667","zipcode":"30101","timezone":"-06:00"},{"name":"Cote D'ivoire","code":"ci","latitude":"5.30943","longitude":"-4.01972","zipcode":"-","timezone":"+00:00"},{"name":"Croatia","code":"hr","latitude":"45.81444","longitude":"15.97798","zipcode":"10010","timezone":"+02:00"},{"name":"Cuba","code":"cu","latitude":"23.15361","longitude":"-81.25139","zipcode":"42200","timezone":"-04:00"},{"name":"Curacao","code":"cw","latitude":"12.1084","longitude":"-68.93354","zipcode":"0000AA","timezone":"-04:00"},{"name":"Cyprus","code":"cy","latitude":"35.16667","longitude":"33.36667","zipcode":"1015","timezone":"+03:00"},{"name":"Czech Republic","code":"cz","latitude":"50.08804","longitude":"14.42076","zipcode":"150 00","timezone":"+02:00"},{"name":"Denmark","code":"dk","latitude":"55.67594","longitude":"12.56553","zipcode":"2450","timezone":"+02:00"},{"name":"Djibouti","code":"dj","latitude":"11.58767","longitude":"43.14468","zipcode":"-","timezone":"+03:00"},{"name":"Dominica","code":"dm","latitude":"15.35","longitude":"-61.4","zipcode":"-","timezone":"-04:00"},{"name":"Dominican Republic","code":"do","latitude":"18.58182","longitude":"-68.40431","zipcode":"11901","timezone":"-04:00"},{"name":"Ecuador","code":"ec","latitude":"-0.22985","longitude":"-78.52495","zipcode":"170150","timezone":"-05:00"},{"name":"Egypt","code":"eg","latitude":"30.00808","longitude":"31.21093","zipcode":"-","timezone":"+02:00"},{"name":"El Salvador","code":"sv","latitude":"13.68935","longitude":"-89.18718","zipcode":"-","timezone":"-06:00"},{"name":"Equatorial Guinea","code":"gq","latitude":"3.75","longitude":"8.78333","zipcode":"-","timezone":"+01:00"},{"name":"Eritrea","code":"er","latitude":"15.33333","longitude":"38.93333","zipcode":"-","timezone":"+03:00"},{"name":"Estonia","code":"ee","latitude":"59.43696","longitude":"24.75353","zipcode":"10153","timezone":"+03:00"},{"name":"Eswatini","code":"sz","latitude":"-26.31667","longitude":"31.13333","zipcode":"H100","timezone":"+02:00"},{"name":"Ethiopia","code":"et","latitude":"9.02497","longitude":"38.74689","zipcode":"1496","timezone":"+03:00"},{"name":"Faroe Islands","code":"fo","latitude":"62.00973","longitude":"-6.77164","zipcode":"110","timezone":"+01:00"},{"name":"Fiji","code":"fj","latitude":"-18.14161","longitude":"178.44149","zipcode":"-","timezone":"+12:00"},{"name":"Finland","code":"fi","latitude":"61.48333","longitude":"21.78333","zipcode":"29999","timezone":"+03:00"},{"name":"France","code":"fr","latitude":"47.21725","longitude":"-1.55336","zipcode":"44978","timezone":"+02:00"},{"name":"French Guiana","code":"gf","latitude":"4.93333","longitude":"-52.33333","zipcode":"97300","timezone":"-03:00"},{"name":"French Polynesia","code":"pf","latitude":"-17.53333","longitude":"-149.56667","zipcode":"98713","timezone":"-10:00"},{"name":"Gabon","code":"ga","latitude":"0.3925","longitude":"9.45365","zipcode":"-","timezone":"+01:00"},{"name":"Gambia","code":"gm","latitude":"13.45274","longitude":"-16.57803","zipcode":"-","timezone":"+00:00"},{"name":"Georgia","code":"ge","latitude":"41.69411","longitude":"44.83368","zipcode":"0100","timezone":"+04:00"},{"name":"Germany","code":"de","latitude":"50.11552","longitude":"8.68417","zipcode":"65931","timezone":"+02:00"},{"name":"Ghana","code":"gh","latitude":"5.55602","longitude":"-0.1969","zipcode":"-","timezone":"+00:00"},{"name":"Gibraltar","code":"gi","latitude":"36.14474","longitude":"-5.35257","zipcode":"GX11 1AA","timezone":"+02:00"},{"name":"Greece","code":"gr","latitude":"37.97945","longitude":"23.71622","zipcode":"167 77","timezone":"+03:00"},{"name":"Greenland","code":"gl","latitude":"64.18347","longitude":"-51.72157","zipcode":"3900","timezone":"-02:00"},{"name":"Grenada","code":"gd","latitude":"12.05644","longitude":"-61.74849","zipcode":"-","timezone":"-04:00"},{"name":"Guadeloupe","code":"gp","latitude":"16.26738","longitude":"-61.58543","zipcode":"97122","timezone":"-04:00"},{"name":"Guam","code":"gu","latitude":"13.46913","longitude":"144.79901","zipcode":"96913","timezone":"+10:00"},{"name":"Guatemala","code":"gt","latitude":"14.64072","longitude":"-90.51327","zipcode":"01073","timezone":"-06:00"},{"name":"Guernsey","code":"gg","latitude":"49.45981","longitude":"-2.53527","zipcode":"GY5","timezone":"+01:00"},{"name":"Guinea","code":"gn","latitude":"9.53795","longitude":"-13.67729","zipcode":"-","timezone":"+00:00"},{"name":"Guinea-Bissau","code":"gw","latitude":"11.86357","longitude":"-15.59767","zipcode":"-","timezone":"+00:00"},{"name":"Guyana","code":"gy","latitude":"6.25","longitude":"-57.51667","zipcode":"-","timezone":"-04:00"},{"name":"Haiti","code":"ht","latitude":"18.53917","longitude":"-72.335","zipcode":"HT 6119","timezone":"-04:00"},{"name":"Holy See","code":"va","latitude":"41.90236","longitude":"12.45332","zipcode":"00120","timezone":"+02:00"},{"name":"Honduras","code":"hn","latitude":"15.06667","longitude":"-88.21667","zipcode":"-","timezone":"-06:00"},{"name":"Hong Kong","code":"hk","latitude":"22.31667","longitude":"114.23333","zipcode":"-","timezone":"+08:00"},{"name":"Hungary","code":"hu","latitude":"47.95539","longitude":"21.71671","zipcode":"4433","timezone":"+02:00"},{"name":"Iceland","code":"is","latitude":"64.13548","longitude":"-21.89541","zipcode":"108","timezone":"+00:00"},{"name":"India","code":"in","latitude":"13.08784","longitude":"80.27847","zipcode":"600009","timezone":"+05:30"},{"name":"Indonesia","code":"id","latitude":"-6.920251","longitude":"107.623302","zipcode":"40163","timezone":"+07:00"},{"name":"Iran, Islamic Republic of","code":"ir","latitude":"31.3203","longitude":"48.6693","zipcode":"6133613395","timezone":"+04:30"},{"name":"Iraq","code":"iq","latitude":"33.34058","longitude":"44.40088","zipcode":"-","timezone":"+03:00"},{"name":"Ireland","code":"ie","latitude":"53.34399","longitude":"-6.26719","zipcode":"D8","timezone":"+01:00"},{"name":"Isle of Man","code":"im","latitude":"54.15","longitude":"-4.48333","zipcode":"IM2","timezone":"+01:00"},{"name":"Israel","code":"il","latitude":"32.09174","longitude":"34.88503","zipcode":"49460","timezone":"+03:00"},{"name":"Italy","code":"it","latitude":"45.46427","longitude":"9.18951","zipcode":"20131","timezone":"+02:00"},{"name":"Jamaica","code":"jm","latitude":"18.05078","longitude":"-76.79372","zipcode":"JMAAW03","timezone":"-05:00"},{"name":"Japan","code":"jp","latitude":"35.689506","longitude":"139.6917","zipcode":"160-0021","timezone":"+09:00"},{"name":"Jersey","code":"je","latitude":"49.18333","longitude":"-2.1","zipcode":"JE3","timezone":"+01:00"},{"name":"Jordan","code":"jo","latitude":"31.95522","longitude":"35.94503","zipcode":"-","timezone":"+03:00"},{"name":"Kazakhstan","code":"kz","latitude":"43.25","longitude":"76.95","zipcode":"050000","timezone":"+06:00"},{"name":"Kenya","code":"ke","latitude":"-1.28333","longitude":"36.81667","zipcode":"-","timezone":"+03:00"},{"name":"Kiribati","code":"ki","latitude":"1.3278","longitude":"172.97696","zipcode":"-","timezone":"+12:00"},{"name":"Korea, Democratic People's Republic of","code":"kp","latitude":"39.1425","longitude":"126.09611","zipcode":"-","timezone":"+09:00"},{"name":"Korea, Republic of","code":"kr","latitude":"37.56826","longitude":"126.97783","zipcode":"100-101","timezone":"+09:00"},{"name":"Kuwait","code":"kw","latitude":"29.083333","longitude":"48.083333","zipcode":"55010","timezone":"+03:00"},{"name":"Kyrgyzstan","code":"kg","latitude":"42.88454","longitude":"74.67819","zipcode":"724318","timezone":"+06:00"},{"name":"Lao People's Democratic Republic","code":"la","latitude":"17.41027","longitude":"104.83068","zipcode":"-","timezone":"+07:00"},{"name":"Latvia","code":"lv","latitude":"56.946","longitude":"24.10589","zipcode":"1073","timezone":"+03:00"},{"name":"Lebanon","code":"lb","latitude":"33.88894","longitude":"35.49442","zipcode":"-","timezone":"+03:00"},{"name":"Lesotho","code":"ls","latitude":"-29.31667","longitude":"27.48333","zipcode":"-","timezone":"+02:00"},{"name":"Liberia","code":"lr","latitude":"6.44611","longitude":"-10.6125","zipcode":"1010","timezone":"+00:00"},{"name":"Libya","code":"ly","latitude":"32.9312","longitude":"12.08199","zipcode":"LV-3477","timezone":"+02:00"},{"name":"Liechtenstein","code":"li","latitude":"47.21805","longitude":"9.5442","zipcode":"9493","timezone":"+02:00"},{"name":"Lithuania","code":"lt","latitude":"54.9","longitude":"23.9","zipcode":"56001","timezone":"+03:00"},{"name":"Luxembourg","code":"lu","latitude":"49.61167","longitude":"6.13","zipcode":"L-8154","timezone":"+02:00"},{"name":"Macao","code":"mo","latitude":"22.20056","longitude":"113.54611","zipcode":"-","timezone":"+08:00"},{"name":"Madagascar","code":"mg","latitude":"-18.16667","longitude":"49.38333","zipcode":"501","timezone":"+03:00"},{"name":"Malawi","code":"mw","latitude":"-13.96692","longitude":"33.78725","zipcode":"-","timezone":"+02:00"},{"name":"Malaysia","code":"my","latitude":"3.1412","longitude":"101.68653","zipcode":"50480","timezone":"+08:00"},{"name":"Maldives","code":"mv","latitude":"4.1748","longitude":"73.50888","zipcode":"20274","timezone":"+05:00"},{"name":"Mali","code":"ml","latitude":"12.86273","longitude":"-7.55985","zipcode":"-","timezone":"+00:00"},{"name":"Malta","code":"mt","latitude":"35.89222","longitude":"14.51833","zipcode":"ISL 1551","timezone":"+02:00"},{"name":"Marshall Islands","code":"mh","latitude":"7.08971","longitude":"171.38027","zipcode":"96970","timezone":"+12:00"},{"name":"Martinique","code":"mq","latitude":"14.74383","longitude":"-61.17533","zipcode":"97250","timezone":"-04:00"},{"name":"Mauritania","code":"mr","latitude":"18.08581","longitude":"-15.9785","zipcode":"-","timezone":"+00:00"},{"name":"Mauritius","code":"mu","latitude":"-20.16194","longitude":"57.49889","zipcode":"-","timezone":"+04:00"},{"name":"Mayotte","code":"yt","latitude":"-12.84639","longitude":"45.13611","zipcode":"97670","timezone":"+03:00"},{"name":"Mexico","code":"mx","latitude":"25.66667","longitude":"-100.31667","zipcode":"64830","timezone":"-05:00"},{"name":"Micronesia, Federated States of","code":"fm","latitude":"9.51638","longitude":"138.12167","zipcode":"96943","timezone":"+10:00"},{"name":"Moldova, Republic of","code":"md","latitude":"47.00556","longitude":"28.8575","zipcode":"MD-2000","timezone":"+03:00"},{"name":"Monaco","code":"mc","latitude":"43.73333","longitude":"7.41667","zipcode":"98000","timezone":"+02:00"},{"name":"Mongolia","code":"mn","latitude":"47.90771","longitude":"106.88324","zipcode":"15172","timezone":"+08:00"},{"name":"Montenegro","code":"me","latitude":"42.44111","longitude":"19.26361","zipcode":"81000","timezone":"+02:00"},{"name":"Montserrat","code":"ms","latitude":"16.79183","longitude":"-62.21058","zipcode":"-","timezone":"-04:00"},{"name":"Morocco","code":"ma","latitude":"31.63148","longitude":"-8.00828","zipcode":"40170","timezone":"+01:00"},{"name":"Mozambique","code":"mz","latitude":"-25.96528","longitude":"32.58917","zipcode":"1102","timezone":"+02:00"},{"name":"Myanmar","code":"mm","latitude":"16.80528","longitude":"96.15611","zipcode":"11181","timezone":"+06:30"},{"name":"Namibia","code":"na","latitude":"-22.55941","longitude":"17.08323","zipcode":"-","timezone":"+02:00"},{"name":"Nauru","code":"nr","latitude":"-0.5477","longitude":"166.920867","zipcode":"-","timezone":"+12:00"},{"name":"Nepal","code":"np","latitude":"27.70169","longitude":"85.3206","zipcode":"44601","timezone":"+05:45"},{"name":"Netherlands","code":"nl","latitude":"52.37403","longitude":"4.88969","zipcode":"1000","timezone":"+02:00"},{"name":"New Caledonia","code":"nc","latitude":"-22.27631","longitude":"166.4572","zipcode":"98800","timezone":"+11:00"},{"name":"New Zealand","code":"nz","latitude":"-36.86667","longitude":"174.76667","zipcode":"1150","timezone":"+12:00"},{"name":"Nicaragua","code":"ni","latitude":"12.13282","longitude":"-86.2504","zipcode":"14026","timezone":"-06:00"},{"name":"Niger","code":"ne","latitude":"13.51366","longitude":"2.1098","zipcode":"-","timezone":"+01:00"},{"name":"Nigeria","code":"ng","latitude":"6.33504","longitude":"5.62749","zipcode":"300103","timezone":"+01:00"},{"name":"Niue","code":"nu","latitude":"-19.05952","longitude":"-169.91867","zipcode":"-","timezone":"-11:00"},{"name":"North Macedonia","code":"mk","latitude":"41.03111","longitude":"21.34028","zipcode":"7000","timezone":"+02:00"},{"name":"Northern Mariana Islands","code":"mp","latitude":"15.21233","longitude":"145.7545","zipcode":"96952","timezone":"+10:00"},{"name":"Norway","code":"no","latitude":"59.14054","longitude":"9.6561","zipcode":"3998","timezone":"+02:00"},{"name":"Oman","code":"om","latitude":"23.61333","longitude":"58.59333","zipcode":"100","timezone":"+04:00"},{"name":"Pakistan","code":"pk","latitude":"24.9056","longitude":"67.0822","zipcode":"12311","timezone":"+05:00"},{"name":"Palau","code":"pw","latitude":"7.50043","longitude":"134.62355","zipcode":"-","timezone":"+09:00"},{"name":"Palestine, State of","code":"ps","latitude":"31.89502","longitude":"35.18459","zipcode":"-","timezone":"+03:00"},{"name":"Panama","code":"pa","latitude":"8.9936","longitude":"-79.51973","zipcode":"-","timezone":"-05:00"},{"name":"Papua New Guinea","code":"pg","latitude":"-9.44314","longitude":"147.17972","zipcode":"121","timezone":"+10:00"},{"name":"Paraguay","code":"py","latitude":"-25.30066","longitude":"-57.63591","zipcode":"2179","timezone":"-04:00"},{"name":"Peru","code":"pe","latitude":"-14.63126","longitude":"-69.44638","zipcode":"21355","timezone":"-05:00"},{"name":"Philippines","code":"ph","latitude":"14.55027","longitude":"121.03269","zipcode":"1214","timezone":"+08:00"},{"name":"Poland","code":"pl","latitude":"52.22977","longitude":"21.01178","zipcode":"05-077","timezone":"+02:00"},{"name":"Portugal","code":"pt","latitude":"38.71667","longitude":"-9.13333","zipcode":"4950-791","timezone":"+01:00"},{"name":"Puerto Rico","code":"pr","latitude":"18.35745","longitude":"-66.111","zipcode":"00969","timezone":"-04:00"},{"name":"Qatar","code":"qa","latitude":"25.27932","longitude":"51.52245","zipcode":"-","timezone":"+03:00"},{"name":"Reunion","code":"re","latitude":"-20.88231","longitude":"55.4504","zipcode":"97490","timezone":"+04:00"},{"name":"Romania","code":"ro","latitude":"44.43225","longitude":"26.10626","zipcode":"060222","timezone":"+03:00"},{"name":"Russian Federation","code":"ru","latitude":"55.75222","longitude":"37.61556","zipcode":"101990","timezone":"+03:00"},{"name":"Rwanda","code":"rw","latitude":"-1.94995","longitude":"30.05885","zipcode":"-","timezone":"+02:00"},{"name":"Saint Barthelemy","code":"bl","latitude":"17.89618","longitude":"-62.84978","zipcode":"97133","timezone":"-04:00"},{"name":"Saint Kitts and Nevis","code":"kn","latitude":"17.29484","longitude":"-62.7261","zipcode":"-","timezone":"-04:00"},{"name":"Saint Lucia","code":"lc","latitude":"13.9957","longitude":"-61.00614","zipcode":"-","timezone":"-04:00"},{"name":"Saint Martin (French Part)","code":"mf","latitude":"18.06667","longitude":"-63.08333","zipcode":"97150","timezone":"-04:00"},{"name":"Saint Pierre and Miquelon","code":"pm","latitude":"47.0975","longitude":"-56.38139","zipcode":"97500","timezone":"-02:00"},{"name":"Saint Vincent and The Grenadines","code":"vc","latitude":"13.2368","longitude":"-61.2728","zipcode":"-","timezone":"-04:00"},{"name":"Samoa","code":"ws","latitude":"-13.83333","longitude":"-171.76666","zipcode":"-","timezone":"+13:00"},{"name":"San Marino","code":"sm","latitude":"43.93333","longitude":"12.45","zipcode":"47890","timezone":"+02:00"},{"name":"Sao Tome and Principe","code":"st","latitude":"0.33654","longitude":"6.72732","zipcode":"-","timezone":"+00:00"},{"name":"Saudi Arabia","code":"sa","latitude":"24.68773","longitude":"46.72185","zipcode":"12233","timezone":"+03:00"},{"name":"Senegal","code":"sn","latitude":"14.6937","longitude":"-17.44406","zipcode":"-","timezone":"+00:00"},{"name":"Serbia","code":"rs","latitude":"44.80401","longitude":"20.46513","zipcode":"11118","timezone":"+02:00"},{"name":"Seychelles","code":"sc","latitude":"-4.76667","longitude":"55.5","zipcode":"-","timezone":"+04:00"},{"name":"Sierra Leone","code":"sl","latitude":"8.484","longitude":"-13.22994","zipcode":"-","timezone":"+00:00"},{"name":"Singapore","code":"sg","latitude":"1.28967","longitude":"103.85007","zipcode":"179431","timezone":"+08:00"},{"name":"Sint Maarten (Dutch Part)","code":"sx","latitude":"18.03868","longitude":"-63.06542","zipcode":"-","timezone":"-04:00"},{"name":"Slovakia","code":"sk","latitude":"48.14816","longitude":"17.10674","zipcode":"851 10","timezone":"+02:00"},{"name":"Slovenia","code":"si","latitude":"46.35917","longitude":"15.11028","zipcode":"3320","timezone":"+02:00"},{"name":"Solomon Islands","code":"sb","latitude":"-9.43333","longitude":"159.95","zipcode":"-","timezone":"+11:00"},{"name":"Somalia","code":"so","latitude":"2.03711","longitude":"45.34375","zipcode":"-","timezone":"+03:00"},{"name":"South Africa","code":"za","latitude":"-25.85891","longitude":"28.18577","zipcode":"0172","timezone":"+02:00"},{"name":"South Sudan","code":"ss","latitude":"4.85165","longitude":"31.58247","zipcode":"81111","timezone":"+03:00"},{"name":"Spain","code":"es","latitude":"40.4165","longitude":"-3.70256","zipcode":"28013","timezone":"+02:00"},{"name":"Sri Lanka","code":"lk","latitude":"6.93194","longitude":"79.84778","zipcode":"10600","timezone":"+05:30"},{"name":"Sudan","code":"sd","latitude":"15.55177","longitude":"32.53241","zipcode":"12217","timezone":"+02:00"},{"name":"Suriname","code":"sr","latitude":"5.86638","longitude":"-55.16682","zipcode":"-","timezone":"-03:00"},{"name":"Sweden","code":"se","latitude":"59.33258","longitude":"18.0649","zipcode":"19587","timezone":"+02:00"},{"name":"Switzerland","code":"ch","latitude":"46.94809","longitude":"7.44744","zipcode":"3000","timezone":"+02:00"},{"name":"Syrian Arab Republic","code":"sy","latitude":"33.5102","longitude":"36.29128","zipcode":"-","timezone":"+03:00"},{"name":"Taiwan, Province of China","code":"tw","latitude":"25.04776","longitude":"121.53185","zipcode":"100","timezone":"+08:00"},{"name":"Tajikistan","code":"tj","latitude":"38.53575","longitude":"68.77905","zipcode":"734018","timezone":"+05:00"},{"name":"Tanzania, United Republic of","code":"tz","latitude":"-6.82349","longitude":"39.26951","zipcode":"-","timezone":"+03:00"},{"name":"Thailand","code":"th","latitude":"18.79038","longitude":"98.98468","zipcode":"50000","timezone":"+07:00"},{"name":"Timor-Leste","code":"tl","latitude":"-8.55861","longitude":"125.57361","zipcode":"-","timezone":"+09:00"},{"name":"Togo","code":"tg","latitude":"6.13748","longitude":"1.21227","zipcode":"80650","timezone":"+00:00"},{"name":"Tokelau","code":"tk","latitude":"-9.38516","longitude":"-171.24675","zipcode":"-","timezone":"+13:00"},{"name":"Tonga","code":"to","latitude":"-21.13333","longitude":"-175.2","zipcode":"-","timezone":"+13:00"},{"name":"Trinidad and Tobago","code":"tt","latitude":"10.66617","longitude":"-61.51657","zipcode":"-","timezone":"-04:00"},{"name":"Tunisia","code":"tn","latitude":"36.81897","longitude":"10.16579","zipcode":"1000","timezone":"+01:00"},{"name":"Turkey","code":"tr","latitude":"41.01384","longitude":"28.94966","zipcode":"37770","timezone":"+03:00"},{"name":"Turkmenistan","code":"tm","latitude":"37.95","longitude":"58.38333","zipcode":"744027","timezone":"+05:00"},{"name":"Turks and Caicos Islands","code":"tc","latitude":"21.46122","longitude":"-71.14188","zipcode":"TKCA 1ZZ","timezone":"-04:00"},{"name":"Tuvalu","code":"tv","latitude":"-8.52425","longitude":"179.19417","zipcode":"-","timezone":"+12:00"},{"name":"Uganda","code":"ug","latitude":"0.31628","longitude":"32.58219","zipcode":"-","timezone":"+03:00"},{"name":"Ukraine","code":"ua","latitude":"49.98081","longitude":"36.25272","zipcode":"61115","timezone":"+03:00"},{"name":"United Arab Emirates","code":"ae","latitude":"25.25817","longitude":"55.30472","zipcode":"-","timezone":"+04:00"},{"name":"United Kingdom","code":"gb","latitude":"51.50853","longitude":"-0.12574","zipcode":"WC2N 5RJ","timezone":"+01:00"},{"name":"United States","code":"us","latitude":"34.05223","longitude":"-118.24368","zipcode":"90001","timezone":"-07:00"},{"name":"United States Minor Outlying Islands","code":"um","latitude":"5.883333","longitude":"-162.083333","zipcode":"96898","timezone":"-10:00"},{"name":"Uruguay","code":"uy","latitude":"-34.83346","longitude":"-56.16735","zipcode":"70000","timezone":"-03:00"},{"name":"Uzbekistan","code":"uz","latitude":"41.26465","longitude":"69.21627","zipcode":"100121","timezone":"+05:00"},{"name":"Vanuatu","code":"vu","latitude":"-17.73381","longitude":"168.32188","zipcode":"-","timezone":"+11:00"},{"name":"Venezuela, Bolivarian Republic of","code":"ve","latitude":"10.63167","longitude":"-71.64056","zipcode":"4002","timezone":"-04:00"},{"name":"Viet Nam","code":"vn","latitude":"21.0245","longitude":"105.84117","zipcode":"100000","timezone":"+07:00"},{"name":"Virgin Islands, British","code":"vg","latitude":"18.41667","longitude":"-64.61667","zipcode":"362","timezone":"-04:00"},{"name":"Virgin Islands, U.S.","code":"vi","latitude":"18.3419","longitude":"-64.9307","zipcode":"00802","timezone":"-04:00"},{"name":"Wallis and Futuna","code":"wf","latitude":"-13.28163","longitude":"-176.17453","zipcode":"98600","timezone":"+12:00"},{"name":"Yemen","code":"ye","latitude":"15.4","longitude":"47.76667","zipcode":"-","timezone":"+03:00"},{"name":"Zambia","code":"zm","latitude":"-15.40669","longitude":"28.28713","zipcode":"10101","timezone":"+02:00"},{"name":"Zimbabwe","code":"zw","latitude":"-17.82935","longitude":"31.05389","zipcode":"-","timezone":"+02:00"}]